{
  "generated_at": "2026-03-16T13:24:54.872Z",
  "boundaries": {
    "sources": {
      "state": {
        "id": "kerala-state",
        "url": "https://raw.githubusercontent.com/geohacker/kerala/master/geojsons/state.geojson"
      },
      "district": {
        "id": "kerala-district",
        "url": "https://raw.githubusercontent.com/geohacker/kerala/master/geojsons/district.geojson"
      },
      "taluk": {
        "id": "kerala-taluk",
        "url": "https://raw.githubusercontent.com/geohacker/kerala/master/geojsons/taluk.geojson"
      },
      "village": {
        "id": "kerala-village",
        "url": "https://raw.githubusercontent.com/geohacker/kerala/master/geojsons/village.geojson"
      }
    },
    "counts": {
      "state": 1,
      "district": 14,
      "taluk": 61
    },
    "districts": [
      {
        "district_id": "alappuzha",
        "name": "Alappuzha",
        "centroid": {
          "lon": 76.48716,
          "lat": 9.48739
        },
        "bbox": {
          "minLon": 76.28024475759506,
          "minLat": 9.084559773296572,
          "maxLon": 76.69406536466522,
          "maxLat": 9.890218893531745
        }
      },
      {
        "district_id": "ernakulam",
        "name": "Ernakulam",
        "centroid": {
          "lon": 76.50438,
          "lat": 10.04516
        },
        "bbox": {
          "minLon": 76.16826357264712,
          "minLat": 9.788524251153994,
          "maxLon": 76.84049711381428,
          "maxLat": 10.301792929441694
        }
      },
      {
        "district_id": "idukki",
        "name": "Idukki",
        "centroid": {
          "lon": 77.02185,
          "lat": 9.81324
        },
        "bbox": {
          "minLon": 76.63100812746183,
          "minLat": 9.271303803885298,
          "maxLon": 77.41268704621419,
          "maxLat": 10.355170985181482
        }
      },
      {
        "district_id": "kannur",
        "name": "Kannur",
        "centroid": {
          "lon": 75.5543,
          "lat": 11.9873
        },
        "bbox": {
          "minLon": 75.17147477808406,
          "minLat": 11.674114007070898,
          "maxLon": 75.93712578783378,
          "maxLat": 12.300487707828006
        }
      },
      {
        "district_id": "kasaragod",
        "name": "Kasaragod",
        "centroid": {
          "lon": 75.148,
          "lat": 12.42793
        },
        "bbox": {
          "minLon": 74.86303796839177,
          "minLat": 12.060771909414594,
          "maxLon": 75.43297179332637,
          "maxLat": 12.795080106512678
        }
      },
      {
        "district_id": "kollam",
        "name": "Kollam",
        "centroid": {
          "lon": 76.87231,
          "lat": 8.96602
        },
        "bbox": {
          "minLon": 76.47958600084017,
          "minLat": 8.760506634176858,
          "maxLon": 77.26502962804351,
          "maxLat": 9.171541218240533
        }
      },
      {
        "district_id": "kottayam",
        "name": "Kottayam",
        "centroid": {
          "lon": 76.67659,
          "lat": 9.62887
        },
        "bbox": {
          "minLon": 76.36621829137054,
          "minLat": 9.400109528368812,
          "maxLon": 76.98696385444246,
          "maxLat": 9.857621101277685
        }
      },
      {
        "district_id": "kozhikode",
        "name": "Kozhikode",
        "centroid": {
          "lon": 75.84082,
          "lat": 11.46383
        },
        "bbox": {
          "minLon": 75.53696559410943,
          "minLat": 11.12434594559977,
          "maxLon": 76.14467878193791,
          "maxLat": 11.803308454892719
        }
      },
      {
        "district_id": "malappuram",
        "name": "Malappuram",
        "centroid": {
          "lon": 76.18941,
          "lat": 11.1056
        },
        "bbox": {
          "minLon": 75.82902363769936,
          "minLat": 10.68583570216216,
          "maxLon": 76.5498034946127,
          "maxLat": 11.525355310865839
        }
      },
      {
        "district_id": "palakkad",
        "name": "Palakkad",
        "centroid": {
          "lon": 76.46807,
          "lat": 10.78687
        },
        "bbox": {
          "minLon": 76.0270621033701,
          "minLat": 10.334705931957869,
          "maxLon": 76.90908614753339,
          "maxLat": 11.23903671807233
        }
      },
      {
        "district_id": "pathanamthitta",
        "name": "Pathanamthitta",
        "centroid": {
          "lon": 76.88052,
          "lat": 9.28038
        },
        "bbox": {
          "minLon": 76.47644060429536,
          "minLat": 9.069084478047289,
          "maxLon": 77.28459155812011,
          "maxLat": 9.491671034487533
        }
      },
      {
        "district_id": "thiruvananthapuram",
        "name": "Thiruvananthapuram",
        "centroid": {
          "lon": 76.97819,
          "lat": 8.57545
        },
        "bbox": {
          "minLon": 76.67225119515376,
          "minLat": 8.291355916213941,
          "maxLon": 77.284119975371,
          "maxLat": 8.859547693413035
        }
      },
      {
        "district_id": "thrissur",
        "name": "Thrissur",
        "centroid": {
          "lon": 76.42972,
          "lat": 10.47869
        },
        "bbox": {
          "minLon": 75.95476145595548,
          "minLat": 10.17398122654793,
          "maxLon": 76.9046812119177,
          "maxLat": 10.783390533612852
        }
      },
      {
        "district_id": "wayanad",
        "name": "Wayanad",
        "centroid": {
          "lon": 76.11041,
          "lat": 11.71307
        },
        "bbox": {
          "minLon": 75.77723949578296,
          "minLat": 11.449203275341828,
          "maxLon": 76.44357117384828,
          "maxLat": 11.97694108608639
        }
      }
    ]
  }
}
