{
  "generated_at": "2026-03-24T17:37:40.209Z",
  "issued_at": "2026-03-24T18:00:00.000Z",
  "frame_time": "2026-03-24T18:00:00.000Z",
  "frame_path": "/v2/radar/f6be200b024b",
  "color_scheme": "universal_blue",
  "districts": [
    {
      "district_id": "kasaragod",
      "name": "Kasaragod",
      "intensity": "none",
      "severity": 0,
      "max_dbz": -11,
      "sample_location": {
        "lat": 12.4996,
        "lon": 74.9869
      },
      "active_pixels": 0,
      "hotspot_detection_count": 0
    },
    {
      "district_id": "kannur",
      "name": "Kannur",
      "intensity": "none",
      "severity": 0,
      "max_dbz": -11,
      "sample_location": {
        "lat": 11.8745,
        "lon": 75.3704
      },
      "active_pixels": 0,
      "hotspot_detection_count": 0
    },
    {
      "district_id": "wayanad",
      "name": "Wayanad",
      "intensity": "none",
      "severity": 0,
      "max_dbz": -11,
      "sample_location": {
        "lat": 11.6854,
        "lon": 76.132
      },
      "active_pixels": 0,
      "hotspot_detection_count": 0
    },
    {
      "district_id": "kozhikode",
      "name": "Kozhikode",
      "intensity": "none",
      "severity": 0,
      "max_dbz": -11,
      "sample_location": {
        "lat": 11.2588,
        "lon": 75.7804
      },
      "active_pixels": 0,
      "hotspot_detection_count": 0
    },
    {
      "district_id": "malappuram",
      "name": "Malappuram",
      "intensity": "none",
      "severity": 0,
      "max_dbz": -11,
      "sample_location": {
        "lat": 11.073,
        "lon": 76.074
      },
      "active_pixels": 0,
      "hotspot_detection_count": 0
    },
    {
      "district_id": "palakkad",
      "name": "Palakkad",
      "intensity": "none",
      "severity": 0,
      "max_dbz": -11,
      "sample_location": {
        "lat": 10.7867,
        "lon": 76.6548
      },
      "active_pixels": 0,
      "hotspot_detection_count": 0
    },
    {
      "district_id": "thrissur",
      "name": "Thrissur",
      "intensity": "none",
      "severity": 0,
      "max_dbz": -11,
      "sample_location": {
        "lat": 10.5276,
        "lon": 76.2144
      },
      "active_pixels": 0,
      "hotspot_detection_count": 0
    },
    {
      "district_id": "ernakulam",
      "name": "Ernakulam",
      "intensity": "none",
      "severity": 0,
      "max_dbz": -11,
      "sample_location": {
        "lat": 9.9816,
        "lon": 76.2999
      },
      "active_pixels": 0,
      "hotspot_detection_count": 0
    },
    {
      "district_id": "idukki",
      "name": "Idukki",
      "intensity": "none",
      "severity": 0,
      "max_dbz": -11,
      "sample_location": {
        "lat": 9.8494,
        "lon": 76.972
      },
      "active_pixels": 0,
      "hotspot_detection_count": 0
    },
    {
      "district_id": "kottayam",
      "name": "Kottayam",
      "intensity": "light",
      "severity": 0.25,
      "max_dbz": 18,
      "sample_location": {
        "lat": 9.5916,
        "lon": 76.5222
      },
      "active_pixels": 12,
      "hotspot_detection_count": 0
    },
    {
      "district_id": "alappuzha",
      "name": "Alappuzha",
      "intensity": "light",
      "severity": 0.25,
      "max_dbz": 18,
      "sample_location": {
        "lat": 9.4981,
        "lon": 76.3388
      },
      "active_pixels": 34,
      "hotspot_detection_count": 2
    },
    {
      "district_id": "pathanamthitta",
      "name": "Pathanamthitta",
      "intensity": "light",
      "severity": 0.25,
      "max_dbz": 18,
      "sample_location": {
        "lat": 9.2648,
        "lon": 76.787
      },
      "active_pixels": 22,
      "hotspot_detection_count": 1
    },
    {
      "district_id": "kollam",
      "name": "Kollam",
      "intensity": "light",
      "severity": 0.25,
      "max_dbz": 18,
      "sample_location": {
        "lat": 8.8932,
        "lon": 76.6141
      },
      "active_pixels": 43,
      "hotspot_detection_count": 0
    },
    {
      "district_id": "thiruvananthapuram",
      "name": "Thiruvananthapuram",
      "intensity": "light",
      "severity": 0.25,
      "max_dbz": 9,
      "sample_location": {
        "lat": 8.5241,
        "lon": 76.9366
      },
      "active_pixels": 7,
      "hotspot_detection_count": 0
    }
  ],
  "hotspots": [
    {
      "hotspot_id": "h-mundakkai-chooralmala",
      "district_id": "wayanad",
      "name": "Mundakkai - Chooralmala - Vellarimala",
      "intensity": "none",
      "severity": 0,
      "max_dbz": -11,
      "active_pixels": 0,
      "location": {
        "lat": 11.558,
        "lon": 76.089
      }
    },
    {
      "hotspot_id": "h-meppadi-vythiri",
      "district_id": "wayanad",
      "name": "Meppadi - Vythiri slopes",
      "intensity": "none",
      "severity": 0,
      "max_dbz": -11,
      "active_pixels": 0,
      "location": {
        "lat": 11.546,
        "lon": 76.049
      }
    },
    {
      "hotspot_id": "h-padinjarathara-banasura",
      "district_id": "wayanad",
      "name": "Padinjarathara - Panamaram dam corridor",
      "intensity": "none",
      "severity": 0,
      "max_dbz": -11,
      "active_pixels": 0,
      "location": {
        "lat": 11.707,
        "lon": 76.028
      }
    },
    {
      "hotspot_id": "h-peermade",
      "district_id": "idukki",
      "name": "Peermade high-range catchment",
      "intensity": "none",
      "severity": 0,
      "max_dbz": -11,
      "active_pixels": 0,
      "location": {
        "lat": 9.574,
        "lon": 76.967
      }
    },
    {
      "hotspot_id": "h-munnar-devikulam",
      "district_id": "idukki",
      "name": "Munnar - Devikulam upper catchments",
      "intensity": "none",
      "severity": 0,
      "max_dbz": -11,
      "active_pixels": 0,
      "location": {
        "lat": 10.088,
        "lon": 77.06
      }
    },
    {
      "hotspot_id": "h-vandiperiyar-mullaperiyar",
      "district_id": "idukki",
      "name": "Vandiperiyar - Vallakadavu - Chappathu",
      "intensity": "none",
      "severity": 0,
      "max_dbz": -11,
      "active_pixels": 0,
      "location": {
        "lat": 9.567,
        "lon": 77.139
      }
    },
    {
      "hotspot_id": "h-kumily-attapallam",
      "district_id": "idukki",
      "name": "Kumily - Attapallam downstream pocket",
      "intensity": "none",
      "severity": 0,
      "max_dbz": -11,
      "active_pixels": 0,
      "location": {
        "lat": 9.606,
        "lon": 77.165
      }
    },
    {
      "hotspot_id": "h-nilambur-chaliyar",
      "district_id": "malappuram",
      "name": "Nilambur - Chaliyar surge corridor",
      "intensity": "none",
      "severity": 0,
      "max_dbz": -11,
      "active_pixels": 0,
      "location": {
        "lat": 11.276,
        "lon": 76.226
      }
    },
    {
      "hotspot_id": "h-kuttanad",
      "district_id": "alappuzha",
      "name": "Kuttanad low-lying basin",
      "intensity": "light",
      "severity": 0.25,
      "max_dbz": 18,
      "active_pixels": 25,
      "location": {
        "lat": 9.365,
        "lon": 76.421
      }
    },
    {
      "hotspot_id": "h-chengannur-pandanad",
      "district_id": "alappuzha",
      "name": "Chengannur - Pandanad floodplain",
      "intensity": "light",
      "severity": 0.25,
      "max_dbz": 18,
      "active_pixels": 13,
      "location": {
        "lat": 9.323,
        "lon": 76.612
      }
    },
    {
      "hotspot_id": "h-thottappally-thanneermukkom",
      "district_id": "alappuzha",
      "name": "Thottappally - Thanneermukkom control zone",
      "intensity": "none",
      "severity": 0,
      "max_dbz": -11,
      "active_pixels": 0,
      "location": {
        "lat": 9.481,
        "lon": 76.372
      }
    },
    {
      "hotspot_id": "h-pamba-corridor",
      "district_id": "pathanamthitta",
      "name": "Aranmula - Kozhencherry - Ranni",
      "intensity": "light",
      "severity": 0.25,
      "max_dbz": 9,
      "active_pixels": 2,
      "location": {
        "lat": 9.367,
        "lon": 76.755
      }
    },
    {
      "hotspot_id": "h-chalakudy",
      "district_id": "thrissur",
      "name": "Chalakudy river and dam influence belt",
      "intensity": "none",
      "severity": 0,
      "max_dbz": -11,
      "active_pixels": 0,
      "location": {
        "lat": 10.303,
        "lon": 76.338
      }
    },
    {
      "hotspot_id": "h-aluva-periyar",
      "district_id": "ernakulam",
      "name": "Aluva - Periyar floodplain",
      "intensity": "none",
      "severity": 0,
      "max_dbz": -11,
      "active_pixels": 0,
      "location": {
        "lat": 10.108,
        "lon": 76.352
      }
    },
    {
      "hotspot_id": "h-neeleswaram-periyar",
      "district_id": "ernakulam",
      "name": "Neeleswaram gauge corridor",
      "intensity": "none",
      "severity": 0,
      "max_dbz": -11,
      "active_pixels": 0,
      "location": {
        "lat": 10.171,
        "lon": 76.451
      }
    },
    {
      "hotspot_id": "h-kochi-mgroad-kaloor",
      "district_id": "ernakulam",
      "name": "Kochi MG Road - Kaloor pocket",
      "intensity": "none",
      "severity": 0,
      "max_dbz": -11,
      "active_pixels": 0,
      "location": {
        "lat": 9.985,
        "lon": 76.291
      }
    },
    {
      "hotspot_id": "h-kakkanad-infopark",
      "district_id": "ernakulam",
      "name": "Infopark - Kakkanad thodu network",
      "intensity": "none",
      "severity": 0,
      "max_dbz": -11,
      "active_pixels": 0,
      "location": {
        "lat": 10.015,
        "lon": 76.355
      }
    },
    {
      "hotspot_id": "h-kalamassery",
      "district_id": "ernakulam",
      "name": "Kalamassery drainage pocket",
      "intensity": "none",
      "severity": 0,
      "max_dbz": -11,
      "active_pixels": 0,
      "location": {
        "lat": 10.062,
        "lon": 76.329
      }
    },
    {
      "hotspot_id": "h-thampanoor-eastfort",
      "district_id": "thiruvananthapuram",
      "name": "Thampanoor - East Fort core",
      "intensity": "none",
      "severity": 0,
      "max_dbz": -11,
      "active_pixels": 0,
      "location": {
        "lat": 8.489,
        "lon": 76.95
      }
    },
    {
      "hotspot_id": "h-kannammoola-uppidamoodu",
      "district_id": "thiruvananthapuram",
      "name": "Kannammoola - Uppidamoodu canals",
      "intensity": "none",
      "severity": 0,
      "max_dbz": -11,
      "active_pixels": 0,
      "location": {
        "lat": 8.522,
        "lon": 76.944
      }
    }
  ]
}
